{
"type": "FeatureCollection",
"name": "Clinicas",
"features": [
{ "type": "Feature", "properties": { "cat": 1, "NOMBRE": "CLINICA PACTO DEL JOCOTE", "TIPO": "C.C.S.S", "RECURSOS": "ND", "PROVINCIA": "ALAJUELA", "CANTON": "ALAJUELA", "DISTRITO": "ALAJUELA" }, "geometry": { "type": "Point", "coordinates": [ -84.212753453588832, 10.016978637486393 ] } },
{ "type": "Feature", "properties": { "cat": 2, "NOMBRE": "EBAIS BO. CONCEPCION ALAJUELA", "TIPO": "E.B.A.I.S", "RECURSOS": "ND", "PROVINCIA": "ALAJUELA", "CANTON": "ALAJUELA", "DISTRITO": "ALAJUELA" }, "geometry": { "type": "Point", "coordinates": [ -84.212753453588832, 10.016978637486393 ] } },
{ "type": "Feature", "properties": { "cat": 3, "NOMBRE": "EBAIS ALAJUELA", "TIPO": "E.B.A.I.S", "RECURSOS": "ND", "PROVINCIA": "ALAJUELA", "CANTON": "ALAJUELA", "DISTRITO": "ALAJUELA" }, "geometry": { "type": "Point", "coordinates": [ -84.212753453588832, 10.016978637486393 ] } },
{ "type": "Feature", "properties": { "cat": 4, "NOMBRE": "CLINICA DINAMARCA ALAJUELA", "TIPO": "PRIVADA", "RECURSOS": "ND", "PROVINCIA": "ALAJUELA", "CANTON": "ALAJUELA", "DISTRITO": "ALAJUELA" }, "geometry": { "type": "Point", "coordinates": [ -84.212753453588832, 10.016978637486393 ] } },
{ "type": "Feature", "properties": { "cat": 5, "NOMBRE": "CLINICA DR. MARCIAL RODRIGUEZ CONEJO", "TIPO": "C.C.S.S", "RECURSOS": "ND", "PROVINCIA": "ALAJUELA", "CANTON": "ALAJUELA", "DISTRITO": "ALAJUELA" }, "geometry": { "type": "Point", "coordinates": [ -84.212753453588832, 10.016978637486393 ] } },
{ "type": "Feature", "properties": { "cat": 6, "NOMBRE": "CLINICA SAN RAFAEL DE  ALAJUELA", "TIPO": "C.C.S.S", "RECURSOS": "ND", "PROVINCIA": "ALAJUELA", "CANTON": "ALAJUELA", "DISTRITO": "ALAJUELA" }, "geometry": { "type": "Point", "coordinates": [ -84.212753453588832, 10.016978637486393 ] } },
{ "type": "Feature", "properties": { "cat": 7, "NOMBRE": "CLINICA CARRIZAL", "TIPO": "C.C.S.S", "RECURSOS": "ND", "PROVINCIA": "ALAJUELA", "CANTON": "ALAJUELA", "DISTRITO": "CARRIZAL" }, "geometry": { "type": "Point", "coordinates": [ -84.1693499425797, 10.085096202376128 ] } },
{ "type": "Feature", "properties": { "cat": 8, "NOMBRE": "CLINICA SABANILLA", "TIPO": "C.C.S.S", "RECURSOS": "ND", "PROVINCIA": "ALAJUELA", "CANTON": "ALAJUELA", "DISTRITO": "SABANILLA" }, "geometry": { "type": "Point", "coordinates": [ -84.198886138595682, 10.117008868784374 ] } },
{ "type": "Feature", "properties": { "cat": 9, "NOMBRE": "CLINICA SAN JOSE DE ALAJUELA", "TIPO": "C.C.S.S", "RECURSOS": "ND", "PROVINCIA": "ALAJUELA", "CANTON": "ALAJUELA", "DISTRITO": "SAN JOSE" }, "geometry": { "type": "Point", "coordinates": [ -84.240861910054633, 10.012473798311087 ] } },
{ "type": "Feature", "properties": { "cat": 10, "NOMBRE": "CLINICA DE SAN RAFAEL DE ALAJUELA", "TIPO": "PRIVADA", "RECURSOS": "ND", "PROVINCIA": "ALAJUELA", "CANTON": "ALAJUELA", "DISTRITO": "SAN RAFAEL" }, "geometry": { "type": "Point", "coordinates": [ -84.213501959867926, 9.973279130994129 ] } },
{ "type": "Feature", "properties": { "cat": 11, "NOMBRE": "CLINICA SAN RAFAEL DE OJO AGUA", "TIPO": "C.C.S.S", "RECURSOS": "ND", "PROVINCIA": "ALAJUELA", "CANTON": "ALAJUELA", "DISTRITO": "SAN RAFAEL" }, "geometry": { "type": "Point", "coordinates": [ -84.223082216108011, 9.96895134089019 ] } },
{ "type": "Feature", "properties": { "cat": 12, "NOMBRE": "CLINICA SAN MIGUEL", "TIPO": "C.C.S.S", "RECURSOS": "ND", "PROVINCIA": "ALAJUELA", "CANTON": "ALAJUELA", "DISTRITO": "SARAPIQUI" }, "geometry": { "type": "Point", "coordinates": [ -84.181671557085352, 10.314991780804805 ] } },
{ "type": "Feature", "properties": { "cat": 13, "NOMBRE": "CLINICA TAMBOR CACAO", "TIPO": "C.C.S.S", "RECURSOS": "ND", "PROVINCIA": "ALAJUELA", "CANTON": "ALAJUELA", "DISTRITO": "TAMBOR" }, "geometry": { "type": "Point", "coordinates": [ -84.239754837140325, 10.037448609160389 ] } },
{ "type": "Feature", "properties": { "cat": 14, "NOMBRE": "CLINICA DE TURRUCARES", "TIPO": "C.C.S.S", "RECURSOS": "ND", "PROVINCIA": "ALAJUELA", "CANTON": "ALAJUELA", "DISTRITO": "TURRUCARES" }, "geometry": { "type": "Point", "coordinates": [ -84.317848467627414, 9.959107885717769 ] } },
{ "type": "Feature", "properties": { "cat": 35, "NOMBRE": "CLINICA AGUAS ZARCAS", "TIPO": "C.C.S.S", "RECURSOS": "ND", "PROVINCIA": "ALAJUELA", "CANTON": "SAN CARLOS", "DISTRITO": "AGUAS ZARCAS" }, "geometry": { "type": "Point", "coordinates": [ -84.340499803448949, 10.373949047800764 ] } },
{ "type": "Feature", "properties": { "cat": 36, "NOMBRE": "CLINICA BOCA ARENAL", "TIPO": "C.C.S.S", "RECURSOS": "ND", "PROVINCIA": "ALAJUELA", "CANTON": "SAN CARLOS", "DISTRITO": "CUTRIS" }, "geometry": { "type": "Point", "coordinates": [ -84.478154962970194, 10.527487556762095 ] } },
{ "type": "Feature", "properties": { "cat": 37, "NOMBRE": "CLINICA LA FORTUNA", "TIPO": "C.C.S.S", "RECURSOS": "ND", "PROVINCIA": "ALAJUELA", "CANTON": "SAN CARLOS", "DISTRITO": "FORTUNA" }, "geometry": { "type": "Point", "coordinates": [ -84.646074391490075, 10.471659892170274 ] } },
{ "type": "Feature", "properties": { "cat": 38, "NOMBRE": "CLINICA PITAL", "TIPO": "C.C.S.S", "RECURSOS": "ND", "PROVINCIA": "ALAJUELA", "CANTON": "SAN CARLOS", "DISTRITO": "PITAL" }, "geometry": { "type": "Point", "coordinates": [ -84.272917599356191, 10.45304287435353 ] } },
{ "type": "Feature", "properties": { "cat": 39, "NOMBRE": "EBAIS CEDRAL CIUDAD QUESADA", "TIPO": "E.B.A.I.S", "RECURSOS": "ND", "PROVINCIA": "ALAJUELA", "CANTON": "SAN CARLOS", "DISTRITO": "QUESADA" }, "geometry": { "type": "Point", "coordinates": [ -84.436629768017653, 10.365910286591591 ] } },
{ "type": "Feature", "properties": { "cat": 40, "NOMBRE": "EBAIS SAN JUAN CIUDAD QUESADA", "TIPO": "E.B.A.I.S", "RECURSOS": "ND", "PROVINCIA": "ALAJUELA", "CANTON": "SAN CARLOS", "DISTRITO": "QUESADA" }, "geometry": { "type": "Point", "coordinates": [ -84.40285466397809, 10.342745014474959 ] } },
{ "type": "Feature", "properties": { "cat": 41, "NOMBRE": "EBAIS SAN MARTIN CIUDAD QUESADA", "TIPO": "E.B.A.I.S", "RECURSOS": "ND", "PROVINCIA": "ALAJUELA", "CANTON": "SAN CARLOS", "DISTRITO": "QUESADA" }, "geometry": { "type": "Point", "coordinates": [ -84.431164587537921, 10.326423139507501 ] } },
{ "type": "Feature", "properties": { "cat": 42, "NOMBRE": "CLINICA CIUDAD QUESADA", "TIPO": "C.C.S.S", "RECURSOS": "ND", "PROVINCIA": "ALAJUELA", "CANTON": "SAN CARLOS", "DISTRITO": "QUESADA" }, "geometry": { "type": "Point", "coordinates": [ -84.431164587537921, 10.326423139507501 ] } },
{ "type": "Feature", "properties": { "cat": 43, "NOMBRE": "CLINICA ALTAMIRITA", "TIPO": "C.C.S.S", "RECURSOS": "ND", "PROVINCIA": "ALAJUELA", "CANTON": "SAN CARLOS", "DISTRITO": "VENADO" }, "geometry": { "type": "Point", "coordinates": [ -84.749156597190847, 10.5561549811421 ] } },
{ "type": "Feature", "properties": { "cat": 44, "NOMBRE": "CLINICA VENECIA", "TIPO": "C.C.S.S", "RECURSOS": "ND", "PROVINCIA": "ALAJUELA", "CANTON": "SAN CARLOS", "DISTRITO": "VENECIA" }, "geometry": { "type": "Point", "coordinates": [ -84.273379081988139, 10.352711497373358 ] } },
{ "type": "Feature", "properties": { "cat": 209, "NOMBRE": "EBAIS DESAMPARADOS", "TIPO": "E.B.A.I.S", "RECURSOS": "ND", "PROVINCIA": "SAN JOSE", "CANTON": "DESAMPARADOS", "DISTRITO": "DESAMPARADOS" }, "geometry": { "type": "Point", "coordinates": [ -84.064799816017654, 9.897705194639288 ] } },
{ "type": "Feature", "properties": { "cat": 210, "NOMBRE": "CLINICA SANTA CATALINA", "TIPO": "PRIVADA", "RECURSOS": "ND", "PROVINCIA": "SAN JOSE", "CANTON": "DESAMPARADOS", "DISTRITO": "DESAMPARADOS" }, "geometry": { "type": "Point", "coordinates": [ -84.064802592546854, 9.8977134989586 ] } },
{ "type": "Feature", "properties": { "cat": 211, "NOMBRE": "CLINICA DENTAL DESAMPARADOS", "TIPO": "C.C.S.S", "RECURSOS": "ND", "PROVINCIA": "SAN JOSE", "CANTON": "DESAMPARADOS", "DISTRITO": "DESAMPARADOS" }, "geometry": { "type": "Point", "coordinates": [ -84.064802592546854, 9.8977134989586 ] } },
{ "type": "Feature", "properties": { "cat": 212, "NOMBRE": "CLINICA DESAMPARADOS DR. MARCIAL FALLAS DIAZ", "TIPO": "C.C.S.S", "RECURSOS": "ND", "PROVINCIA": "SAN JOSE", "CANTON": "DESAMPARADOS", "DISTRITO": "DESAMPARADOS" }, "geometry": { "type": "Point", "coordinates": [ -84.064802592546854, 9.8977134989586 ] } },
{ "type": "Feature", "properties": { "cat": 213, "NOMBRE": "CLINICA FRAILES", "TIPO": "C.C.S.S", "RECURSOS": "ND", "PROVINCIA": "SAN JOSE", "CANTON": "DESAMPARADOS", "DISTRITO": "FRAILES" }, "geometry": { "type": "Point", "coordinates": [ -84.056582133606327, 9.750943287673943 ] } },
{ "type": "Feature", "properties": { "cat": 214, "NOMBRE": "CLINICA LA LUCHA", "TIPO": "C.C.S.S", "RECURSOS": "ND", "PROVINCIA": "SAN JOSE", "CANTON": "DESAMPARADOS", "DISTRITO": "SAN CRISTOBAL" }, "geometry": { "type": "Point", "coordinates": [ -83.998547942838556, 9.739034560885118 ] } },
{ "type": "Feature", "properties": { "cat": 243, "NOMBRE": "EBAIS BO CARIT", "TIPO": "E.B.A.I.S", "RECURSOS": "ND", "PROVINCIA": "SAN JOSE", "CANTON": "SAN JOSE", "DISTRITO": "CARMEN" }, "geometry": { "type": "Point", "coordinates": [ -84.069832113279176, 9.936374918575094 ] } },
{ "type": "Feature", "properties": { "cat": 244, "NOMBRE": "CLINICA INTEGRAL DE MEDICINA", "TIPO": "PRIVADA", "RECURSOS": "ND", "PROVINCIA": "SAN JOSE", "CANTON": "SAN JOSE", "DISTRITO": "CARMEN" }, "geometry": { "type": "Point", "coordinates": [ -84.069832113279176, 9.936374918575094 ] } },
{ "type": "Feature", "properties": { "cat": 245, "NOMBRE": "CLINICA MEDRANO", "TIPO": "PRIVADA", "RECURSOS": "ND", "PROVINCIA": "SAN JOSE", "CANTON": "SAN JOSE", "DISTRITO": "CARMEN" }, "geometry": { "type": "Point", "coordinates": [ -84.069832113279176, 9.936374918575094 ] } },
{ "type": "Feature", "properties": { "cat": 246, "NOMBRE": "CLINICA AGUILAR BONILLA", "TIPO": "C.C.S.S", "RECURSOS": "ND", "PROVINCIA": "SAN JOSE", "CANTON": "SAN JOSE", "DISTRITO": "CARMEN" }, "geometry": { "type": "Point", "coordinates": [ -84.069832113279176, 9.936374918575094 ] } },
{ "type": "Feature", "properties": { "cat": 247, "NOMBRE": "CLINICA CENTRAL", "TIPO": "C.C.S.S", "RECURSOS": "ND", "PROVINCIA": "SAN JOSE", "CANTON": "SAN JOSE", "DISTRITO": "CARMEN" }, "geometry": { "type": "Point", "coordinates": [ -84.069832113279176, 9.936374918575094 ] } },
{ "type": "Feature", "properties": { "cat": 248, "NOMBRE": "CLINICA AMERICANA LTDA.", "TIPO": "PRIVADA", "RECURSOS": "ND", "PROVINCIA": "SAN JOSE", "CANTON": "SAN JOSE", "DISTRITO": "CATEDRAL" }, "geometry": { "type": "Point", "coordinates": [ -84.071566146251769, 9.924450475575881 ] } },
{ "type": "Feature", "properties": { "cat": 249, "NOMBRE": "CLINICA ARANJUEZ S.A.", "TIPO": "PRIVADA", "RECURSOS": "ND", "PROVINCIA": "SAN JOSE", "CANTON": "SAN JOSE", "DISTRITO": "CATEDRAL" }, "geometry": { "type": "Point", "coordinates": [ -84.071566146251769, 9.924450475575881 ] } },
{ "type": "Feature", "properties": { "cat": 250, "NOMBRE": "CLINICA SANTA MARIA S.A.", "TIPO": "PRIVADA", "RECURSOS": "ND", "PROVINCIA": "SAN JOSE", "CANTON": "SAN JOSE", "DISTRITO": "CATEDRAL" }, "geometry": { "type": "Point", "coordinates": [ -84.071566146251769, 9.924450475575881 ] } },
{ "type": "Feature", "properties": { "cat": 251, "NOMBRE": "CLINICA SANTA RITA", "TIPO": "PRIVADA", "RECURSOS": "ND", "PROVINCIA": "SAN JOSE", "CANTON": "SAN JOSE", "DISTRITO": "CATEDRAL" }, "geometry": { "type": "Point", "coordinates": [ -84.071566146251769, 9.924450475575881 ] } },
{ "type": "Feature", "properties": { "cat": 252, "NOMBRE": "CLINICA BIBLICA", "TIPO": "PRIVADA", "RECURSOS": "ND", "PROVINCIA": "SAN JOSE", "CANTON": "SAN JOSE", "DISTRITO": "CATEDRAL" }, "geometry": { "type": "Point", "coordinates": [ -84.071566146251769, 9.924450475575881 ] } },
{ "type": "Feature", "properties": { "cat": 253, "NOMBRE": "CLINICA SANTA RITA", "TIPO": "C.C.S.S", "RECURSOS": "ND", "PROVINCIA": "SAN JOSE", "CANTON": "SAN JOSE", "DISTRITO": "CATEDRAL" }, "geometry": { "type": "Point", "coordinates": [ -84.071566146251769, 9.924450475575881 ] } },
{ "type": "Feature", "properties": { "cat": 254, "NOMBRE": "CLINICA DE ESPECIALIDADES MEDICAS SANTA MONICA", "TIPO": "PRIVADA", "RECURSOS": "ND", "PROVINCIA": "SAN JOSE", "CANTON": "SAN JOSE", "DISTRITO": "HATILLO" }, "geometry": { "type": "Point", "coordinates": [ -84.100096894796962, 9.916326910895796 ] } },
{ "type": "Feature", "properties": { "cat": 255, "NOMBRE": "CLINICA HATILLO DR. SOLON NUÑEZ FRUTOS", "TIPO": "C.C.S.S", "RECURSOS": "ND", "PROVINCIA": "SAN JOSE", "CANTON": "SAN JOSE", "DISTRITO": "HATILLO" }, "geometry": { "type": "Point", "coordinates": [ -84.100096894796962, 9.916326910895796 ] } },
{ "type": "Feature", "properties": { "cat": 256, "NOMBRE": "CLINICA ODONTOLOGICA HATILLO", "TIPO": "C.C.S.S", "RECURSOS": "ND", "PROVINCIA": "SAN JOSE", "CANTON": "SAN JOSE", "DISTRITO": "HATILLO" }, "geometry": { "type": "Point", "coordinates": [ -84.100096894796962, 9.916326910895796 ] } },
{ "type": "Feature", "properties": { "cat": 257, "NOMBRE": "CLINICA DENTAL MINISTERIO SALUD", "TIPO": "C.C.S.S", "RECURSOS": "ND", "PROVINCIA": "SAN JOSE", "CANTON": "SAN JOSE", "DISTRITO": "HOSPITAL" }, "geometry": { "type": "Point", "coordinates": [ -84.089067498710577, 9.926432058147226 ] } },
{ "type": "Feature", "properties": { "cat": 258, "NOMBRE": "CLINICA DR. RICARDO MORENO CAÑAS", "TIPO": "C.C.S.S", "RECURSOS": "ND", "PROVINCIA": "SAN JOSE", "CANTON": "SAN JOSE", "DISTRITO": "HOSPITAL" }, "geometry": { "type": "Point", "coordinates": [ -84.089067498710577, 9.926432058147226 ] } },
{ "type": "Feature", "properties": { "cat": 259, "NOMBRE": "EBAIS BO. VASCONIA", "TIPO": "E.B.A.I.S", "RECURSOS": "ND", "PROVINCIA": "SAN JOSE", "CANTON": "SAN JOSE", "DISTRITO": "MATA REDONDA" }, "geometry": { "type": "Point", "coordinates": [ -84.110271708275931, 9.93540278620171 ] } },
{ "type": "Feature", "properties": { "cat": 260, "NOMBRE": "CLINICA SANTA LUCIA S.A.", "TIPO": "PRIVADA", "RECURSOS": "ND", "PROVINCIA": "SAN JOSE", "CANTON": "SAN JOSE", "DISTRITO": "MATA REDONDA" }, "geometry": { "type": "Point", "coordinates": [ -84.110271708275931, 9.93540278620171 ] } },
{ "type": "Feature", "properties": { "cat": 261, "NOMBRE": "CLINICA PAVAS", "TIPO": "C.C.S.S", "RECURSOS": "ND", "PROVINCIA": "SAN JOSE", "CANTON": "SAN JOSE", "DISTRITO": "PAVAS" }, "geometry": { "type": "Point", "coordinates": [ -84.134646119605634, 9.945808622722268 ] } },
{ "type": "Feature", "properties": { "cat": 262, "NOMBRE": "CLINICA COOPERATIVA DE PAVAS", "TIPO": "C.C.S.S", "RECURSOS": "ND", "PROVINCIA": "SAN JOSE", "CANTON": "SAN JOSE", "DISTRITO": "PAVAS" }, "geometry": { "type": "Point", "coordinates": [ -84.134646119605634, 9.945808622722268 ] } },
{ "type": "Feature", "properties": { "cat": 263, "NOMBRE": "EBAIS LA URUCA", "TIPO": "E.B.A.I.S", "RECURSOS": "ND", "PROVINCIA": "SAN JOSE", "CANTON": "SAN JOSE", "DISTRITO": "URUCA" }, "geometry": { "type": "Point", "coordinates": [ -84.100050515969912, 9.949142551453917 ] } },
{ "type": "Feature", "properties": { "cat": 264, "NOMBRE": "CLINICA JUAN PABLO II", "TIPO": "PRIVADA", "RECURSOS": "ND", "PROVINCIA": "SAN JOSE", "CANTON": "SAN JOSE", "DISTRITO": "URUCA" }, "geometry": { "type": "Point", "coordinates": [ -84.100050515969912, 9.949142551453917 ] } },
{ "type": "Feature", "properties": { "cat": 265, "NOMBRE": "CLINICA SANTA FE", "TIPO": "PRIVADA", "RECURSOS": "ND", "PROVINCIA": "SAN JOSE", "CANTON": "SAN JOSE", "DISTRITO": "URUCA" }, "geometry": { "type": "Point", "coordinates": [ -84.100050515969912, 9.949142551453917 ] } },
{ "type": "Feature", "properties": { "cat": 266, "NOMBRE": "CLINICA DR. CARLOS DURAN CARTIN", "TIPO": "C.C.S.S", "RECURSOS": "ND", "PROVINCIA": "SAN JOSE", "CANTON": "SAN JOSE", "DISTRITO": "ZAPOTE" }, "geometry": { "type": "Point", "coordinates": [ -84.053589059805006, 9.920322227625409 ] } },
{ "type": "Feature", "properties": { "cat": 267, "NOMBRE": "CLINICA GIL S.A.", "TIPO": "PRIVADA", "RECURSOS": "ND", "PROVINCIA": "SAN JOSE", "CANTON": "SAN JOSE", "DISTRITO": "CATEDRAL" }, "geometry": { "type": "Point", "coordinates": [ -84.071566146251769, 9.924450475575881 ] } },
{ "type": "Feature", "properties": { "cat": 277, "NOMBRE": "CLINICA ASEMBIS", "TIPO": "PRIVADA", "RECURSOS": "ND", "PROVINCIA": "SAN JOSE", "CANTON": "SAN JOSE", "DISTRITO": "HOSPITAL" }, "geometry": { "type": "Point", "coordinates": [ -84.089067498710577, 9.926432058147226 ] } },
{ "type": "Feature", "properties": { "cat": 278, "NOMBRE": "CLINICA DE ESPECIALIDADES MEDICAS SANTA MARIA", "TIPO": "PRIVADA", "RECURSOS": "ND", "PROVINCIA": "SAN JOSE", "CANTON": "SAN JOSE", "DISTRITO": "CATEDRAL" }, "geometry": { "type": "Point", "coordinates": [ -84.071566146251769, 9.924450475575881 ] } },
{ "type": "Feature", "properties": { "cat": 279, "NOMBRE": "CLINICA DINAMARCA BARRIO ARANJUEZ", "TIPO": "PRIVADA", "RECURSOS": "ND", "PROVINCIA": "SAN JOSE", "CANTON": "SAN JOSE", "DISTRITO": "CARMEN" }, "geometry": { "type": "Point", "coordinates": [ -84.069832113279176, 9.936374918575094 ] } },
{ "type": "Feature", "properties": { "cat": 281, "NOMBRE": "CLINICA EL COYOL", "TIPO": "C.C.S.S", "RECURSOS": "ND", "PROVINCIA": "ALAJUELA", "CANTON": "ALAJUELA", "DISTRITO": "SAN JOSE" }, "geometry": { "type": "Point", "coordinates": [ -84.259815286624189, 10.001399717134168 ] } },
{ "type": "Feature", "properties": { "cat": 282, "NOMBRE": "CLINICA LA REFORMA", "TIPO": "C.C.S.S", "RECURSOS": "ND", "PROVINCIA": "ALAJUELA", "CANTON": "ALAJUELA", "DISTRITO": "SAN RAFAEL" }, "geometry": { "type": "Point", "coordinates": [ -84.221200441449156, 9.954744522114558 ] } },
{ "type": "Feature", "properties": { "cat": 283, "NOMBRE": "EBAIS SUCRE", "TIPO": "E.B.A.I.S", "RECURSOS": "ND", "PROVINCIA": "ALAJUELA", "CANTON": "SAN CARLOS", "DISTRITO": "QUESADA" }, "geometry": { "type": "Point", "coordinates": [ -84.430413832209965, 10.28334173790013 ] } },
{ "type": "Feature", "properties": { "cat": 287, "NOMBRE": "CLINICA DE ESPECIALIDADES MEDICAS LA PACIFICA", "TIPO": "PRIVADA", "RECURSOS": "ND", "PROVINCIA": "SAN JOSE", "CANTON": "SAN JOSE", "DISTRITO": "SAN FRANCISCO DE DOS RIOS" }, "geometry": { "type": "Point", "coordinates": [ -84.056513037964422, 9.910446714356686 ] } },
{ "type": "Feature", "properties": { "cat": 288, "NOMBRE": "CLINICA SANTA ROSA", "TIPO": "C.C.S.S", "RECURSOS": "ND", "PROVINCIA": "ALAJUELA", "CANTON": "SAN CARLOS", "DISTRITO": "POCOSOL" }, "geometry": { "type": "Point", "coordinates": [ -84.528571640501795, 10.623305918759954 ] } },
{ "type": "Feature", "properties": { "cat": 289, "NOMBRE": "CLINICA MONTERREY", "TIPO": "C.C.S.S", "RECURSOS": "ND", "PROVINCIA": "ALAJUELA", "CANTON": "SAN CARLOS", "DISTRITO": "MONTERREY" }, "geometry": { "type": "Point", "coordinates": [ -84.661941446813742, 10.537956605943149 ] } }
]
}
